[
    {
        "name": "十一街区",
        "address": "广东省佛山市南海区南新二路59号",
        "latitude": 23.02643,
        "longitude": 113.14527,
        "geohash": "23.02643,113.14527"
    },
    {
        "name": "顺德11哥卜卜贝",
        "address": "广东省佛山市顺德区南河路陈大滘工业区D座5-7号铺",
        "latitude": 22.915525,
        "longitude": 113.198566,
        "geohash": "22.915525,113.198566"
    },
    {
        "name": "佛山市第十一中学",
        "address": "广东省佛山市禅城区燎原路67号",
        "latitude": 23.032647,
        "longitude": 113.122328,
        "geohash": "23.032647,113.122328"
    },
    {
        "name": "东海国际公寓11座",
        "address": "广东省佛山市禅城区东海国际4区11座",
        "latitude": 23.055718,
        "longitude": 113.103381,
        "geohash": "23.055718,113.103381"
    },
    {
        "name": "市十一中[公交站]",
        "address": "119路高峰专线,G7路,119路",
        "latitude": 23.032456,
        "longitude": 113.121838,
        "geohash": "23.032456,113.121838"
    },
    {
        "name": "顺德11哥卜卜贝",
        "address": "广东省佛山市南海区沙龙路迈购家居一楼",
        "latitude": 22.91189,
        "longitude": 113.02314,
        "geohash": "22.91189,113.02314"
    },
    {
        "name": "糖果社区山居十一墅",
        "address": "广东省佛山市南海区湖村三横路",
        "latitude": 23.185011,
        "longitude": 113.191084,
        "geohash": "23.185011,113.191084"
    },
    {
        "name": "十一社村",
        "address": "广东省佛山市南海区 ",
        "latitude": 22.81465,
        "longitude": 113.02952,
        "geohash": "22.81465,113.02952"
    },
    {
        "name": "十一孔桥",
        "address": "广东省佛山市禅城区中山路12号西南方向110米",
        "latitude": 23.04461,
        "longitude": 113.11718,
        "geohash": "23.04461,113.11718"
    },
    {
        "name": "忠信路11号小区",
        "address": "广东省佛山市禅城区忠信路11号",
        "latitude": 23.00371,
        "longitude": 113.07696,
        "geohash": "23.00371,113.07696"
    }
]